{
    "Agronômica": [
        {
            "id": 44,
            "latitude": -27.278164,
            "longitude": -49.732418,
            "address": "Valada Gropp"
        },
        {
            "id": 76,
            "latitude": -27.272924,
            "longitude": -49.715703,
            "address": "Rua Expedicionário Leopoldo Venturi"
        },
        {
            "id": 7,
            "latitude": -27.279354,
            "longitude": -49.732443,
            "address": "Valada Gropp"
        }
    ],
    "Albertina": [
        {
            "id": 26,
            "latitude": -27.263669,
            "longitude": -49.641723,
            "address": "Estrada Geral Albertina, s/n"
        },
        {
            "id": 4,
            "latitude": -27.263251,
            "longitude": -49.642310,
            "address": "Estrada Geral Albertina, s/n"
        }
    ],
    "Jardim América": [
        {
            "id": 25,
            "latitude": -27.208919,
            "longitude": -49.634356,
            "address": "Alameda Bela Aliança, 1211"
        },
        {
            "id": 58,
            "latitude": -27.2092,
            "longitude": -49.6422,
            "address": "Rua Bulção Viana 1228 "
        }
    ]
}
